{
"type": "FeatureCollection",
"crs": { "type": "name", "properties": { "name": "urn:ogc:def:crs:OGC:1.3:CRS84" } },
                                                                                
"features": [
{ "type": "Feature", "properties": { "NAME": "Helen's Cycles", "ADDRESS": "2501 Broadway", "PHONE": "310-453-8396", "URL": "www.helenscycles.com", "Services": "Sales\/Repair" }, "geometry": { "type": "Point", "coordinates": [ -118.47360235109737, 34.031456680212941 ] } },
{ "type": "Feature", "properties": { "NAME": "Performance Bicycle Shop", "ADDRESS": "501 Broadway", "PHONE": "310-451-9977", "URL": "www.performancebike.com", "Services": "Sales\/Repair" }, "geometry": { "type": "Point", "coordinates": [ -118.4926357272434, 34.016035253357622 ] } },
{ "type": "Feature", "properties": { "NAME": "Spokes N' Stuff", "ADDRESS": "1715 Ocean Front Walk", "PHONE": "310-395-4748", "URL": "www.spokesnstuff.com", "Services": "Full" }, "geometry": { "type": "Point", "coordinates": [ -118.49357626180611, 34.008457614807931 ] } },
{ "type": "Feature", "properties": { "NAME": "The Bicycle Workshop", "ADDRESS": "1638 Ocean Park Blvd", "PHONE": "310-450-3180", "URL": null, "Services": "Repair" }, "geometry": { "type": "Point", "coordinates": [ -118.46738696858078, 34.011976594049074 ] } },
{ "type": "Feature", "properties": { "NAME": "Triathlete Zombies", "ADDRESS": "3216 Santa Monica Blvd", "PHONE": "310-315-1485", "URL": "www.triathletezombies.com", "Services": "Full" }, "geometry": { "type": "Point", "coordinates": [ -118.46808037275071, 34.038164663193051 ] } },
{ "type": "Feature", "properties": { "NAME": "Bicycle Ambulance", "ADDRESS": "2212 Lincoln Blvd", "PHONE": "310-395-5026", "URL": null, "Services": "Sales\/Repair" }, "geometry": { "type": "Point", "coordinates": [ -118.48044690465157, 34.010041614759629 ] } },
{ "type": "Feature", "properties": { "NAME": "Perry's Blazing Saddles", "ADDRESS": "320 Santa Monica Pier", "PHONE": "310-393-9778", "URL": "www.perryscafe.com", "Services": "Rentals" }, "geometry": { "type": "Point", "coordinates": [ -118.49708304430095, 34.009438705747037 ] } },
{ "type": "Feature", "properties": { "NAME": "Perry's Cafe & Rentals", "ADDRESS": "1200 Pacific Coast Highway", "PHONE": "310-696-8644", "URL": "www.www.perryscafe.com", "Services": "Sales\/Rentals" }, "geometry": { "type": "Point", "coordinates": [ -118.50211650279471, 34.01581891578595 ] } },
{ "type": "Feature", "properties": { "NAME": "Bike Attack", "ADDRESS": "2400 Main St", "PHONE": "310-581-8014", "URL": "www.bikeattack.com", "Services": "Sales\/Repair" }, "geometry": { "type": "Point", "coordinates": [ -118.48586972536846, 34.004026721230844 ] } },
{ "type": "Feature", "properties": { "NAME": "Perry's Cafe $ Rentals", "ADDRESS": "930 Pacific Coast Highway", "PHONE": "310-260-1114", "URL": "www.perryscafe.com", "Services": "Rentals" }, "geometry": { "type": "Point", "coordinates": [ -118.50582707922639, 34.019074062943254 ] } },
{ "type": "Feature", "properties": { "NAME": "Sea Mist Rentals", "ADDRESS": "1619 Ocean Front Walk\r\n1619 Ocean Front Walk\r\n", "PHONE": "310-395-7076", "URL": null, "Services": "Rentals" }, "geometry": { "type": "Point", "coordinates": [ -118.49537935344281, 34.010523539397653 ] } },
{ "type": "Feature", "properties": { "NAME": "Perry's Cafe Bike n Skate", "ADDRESS": "2400 Ocean Front Walk", "PHONE": "310-452-7609", "URL": "www.perryscafe.com", "Services": "Full" }, "geometry": { "type": "Point", "coordinates": [ -118.48845071722236, 34.002153996192575 ] } },
{ "type": "Feature", "properties": { "NAME": "Perry's Cafe Bike n Skate", "ADDRESS": "2600 Ocean Front Walk", "PHONE": "310-584-9306", "URL": "www.perryscafe.com", "Services": "Rentals" }, "geometry": { "type": "Point", "coordinates": [ -118.48671277375263, 34.000198178029798 ] } },
{ "type": "Feature", "properties": { "NAME": "Veloworx LLC", "ADDRESS": "3106 Lincoln Bl", "PHONE": "310-584-9797", "URL": "www.veloworx.com", "Services": "Sales\/Repair" }, "geometry": { "type": "Point", "coordinates": [ -118.47112047923159, 34.002902416205593 ] } },
{ "type": "Feature", "properties": { "NAME": "Rack Solid", "ADDRESS": "3127 Lincoln Bl", "PHONE": "310-450-6027", "URL": "www.racksolid.com", "Services": "Sales" }, "geometry": { "type": "Point", "coordinates": [ -118.47030630070205, 34.002705753253061 ] } },
{ "type": "Feature", "properties": { "NAME": "Cynergy Cycles", "ADDRESS": "2300 Santa Monica Blvd", "PHONE": "310-857-1500", "URL": "www.cynergycycles.com", "Services": "Sales\/Repair" }, "geometry": { "type": "Point", "coordinates": [ -118.47729700783771, 34.03073554605723 ] } },
{ "type": "Feature", "properties": { "NAME": "REI", "ADDRESS": "402 Santa Monica Blvd", "PHONE": "310-458-4370", "URL": "www.rei.com", "Services": "Sales\/Repair" }, "geometry": { "type": "Point", "coordinates": [ -118.49492030654034, 34.016064583837696 ] } },
{ "type": "Feature", "properties": { "NAME": "Bike Effect", "ADDRESS": "910 Broadway Blvd #100", "PHONE": "310-393-4348", "URL": "http:\/\/www.bikeeffect.com\/home\/", "Services": "Sales\/Repair" }, "geometry": { "type": "Point", "coordinates": [ -118.48831389967631, 34.01919929120178 ] } },
{ "type": "Feature", "properties": { "NAME": "Pedal or Not", "ADDRESS": "1515 7th st.", "PHONE": "310-917-1111", "URL": "www.pedalornot.net", "Services": "Sales\/Repair" }, "geometry": { "type": "Point", "coordinates": [ -118.49023804843813, 34.017099362412054 ] } },
{ "type": "Feature", "properties": { "NAME": "Predator Cycling Inc", "ADDRESS": "2834 Colorado Av #57", "PHONE": "310-829-6464", "URL": "www.predatorcycling.com", "Services": "Sales\/Repair" }, "geometry": { "type": "Point", "coordinates": [ -118.46831674707336, 34.032791567878995 ] } },
{ "type": "Feature", "properties": { "NAME": "Triathlon Lab", "ADDRESS": "3328 Pico Boulevard", "PHONE": "310-581-6100", "URL": "www.triathlonlab.com", "Services": "Full" }, "geometry": { "type": "Point", "coordinates": [ -118.45470960803782, 34.027070836651554 ] } }
]
}
